[
  {
    "store_name": "东都酒家（杭海路店）",
    "address": "杭海路790号",
    "notes": "",
    "video": "",
    "amount": "",
    "category": "炒菜",
    "location": "120.265352,30.302214",
    "phone": "0571-86015739;13606646735"
  },
  {
    "store_name": "正大酒家",
    "address": "解放路2号",
    "notes": "",
    "video": "",
    "amount": "",
    "category": "炒菜",
    "location": "120.185810,30.250099",
    "phone": "0571-87046932"
  },
  {
    "store_name": "盐蘸牛肉(景芳小区店)",
    "address": "景昙路141号",
    "notes": "",
    "video": "",
    "amount": "",
    "category": "炒菜",
    "location": "120.203478,30.269957",
    "phone": "13486366688;15988837893;18768125727"
  },
  {
    "store_name": "老王东北菜",
    "address": "顾家畈路117-14号",
    "notes": "三里亭菜场边上",
    "video": "",
    "amount": "",
    "category": "炒菜",
    "location": "120.188457,30.292590",
    "phone": "15700057789;17826818811"
  },
  {
    "store_name": "峻诚酸菜鱼",
    "address": "清江路122号1楼130室",
    "notes": "酸菜鱼好吃",
    "video": "",
    "amount": "",
    "category": "炒菜",
    "location": "120.191772,30.245134",
    "phone": "17368568887"
  },
  {
    "store_name": "幸福邻里食堂（乐荷食光）",
    "address": "凯旋路133号",
    "notes": "金牛坊小区门口",
    "video": "",
    "amount": "",
    "category": "炒菜",
    "location": "120.189779,30.254617",
    "phone": ""
  },
  {
    "store_name": "建德人家",
    "address": "普照巷15号",
    "notes": "",
    "video": "https://www.bilibili.com/video/BV1XN411T7JG",
    "amount": "",
    "category": "炒菜",
    "location": "120.243531,30.306912",
    "phone": "13989851037"
  },
  {
    "store_name": "李厨东北家常菜",
    "address": "环丁路288-1号",
    "notes": "",
    "video": "",
    "amount": "",
    "category": "炒菜",
    "location": "120.236582,30.349296",
    "phone": "15942659429"
  },
  {
    "store_name": "三味轩",
    "address": "清吟街107号",
    "notes": "",
    "video": "",
    "amount": "",
    "category": "炒菜",
    "location": "120.174760,30.253727",
    "phone": "15957105660"
  },
  {
    "store_name": "周味府",
    "address": "中豪湘座B座1楼",
    "notes": "",
    "video": "",
    "amount": "",
    "category": "炒菜",
    "location": "120.212645,30.274155",
    "phone": "15967116911"
  },
  {
    "store_name": "小白餐馆",
    "address": "光复路117号日新桥弄2号",
    "notes": "",
    "video": "",
    "amount": "",
    "category": "炒菜",
    "location": "120.170919,30.249204",
    "phone": "13858107672"
  },
  {
    "store_name": "江山饭店",
    "address": "复兴南街187号",
    "notes": "",
    "video": "",
    "amount": "",
    "category": "炒菜",
    "location": "120.165275,30.208756",
    "phone": "0571-86580381;15925604183"
  },
  {
    "store_name": "兴加儿巷小吃",
    "address": "中河南路16号",
    "notes": "",
    "video": "",
    "amount": "",
    "category": "炒菜",
    "location": "120.171163,30.225932",
    "phone": "15372031689"
  },
  {
    "store_name": "五味菜馆",
    "address": "格畈家园37号",
    "notes": "格畈家园南苑东南2门西北110米",
    "video": "",
    "amount": "",
    "category": "炒菜",
    "location": "120.260921,30.323009",
    "phone": ""
  },
  {
    "store_name": "左邻右舍",
    "address": "顾家畈路三里亭村民家园14幢104室",
    "notes": "左邻右舍餐馆(三里亭村民家园店)",
    "video": "",
    "amount": "",
    "category": "炒菜",
    "location": "120.191812,30.292738",
    "phone": "13634104223"
  },
  {
    "store_name": "一家土菜馆",
    "address": "杭州市上城区景西路景芳农贸市场1号营业房",
    "notes": "",
    "video": "",
    "amount": "",
    "category": "炒菜",
    "location": "120.201721,30.269783",
    "phone": "0571-86943493;13107710467"
  },
  {
    "store_name": "品源排挡",
    "address": "城隍牌楼巷100号",
    "notes": "点评搜不到，在釜山小吃隔壁",
    "video": "",
    "amount": "",
    "category": "炒菜",
    "location": "120.169460,30.235305",
    "phone": "18082020977;18806534725"
  },
  {
    "store_name": "康康饭店",
    "address": "景芳路172号景芳二区南区",
    "notes": "点评搜不到，30年老店",
    "video": "",
    "amount": "",
    "category": "炒菜",
    "location": "120.202142,30.267486",
    "phone": "0571-86951344;13858132275"
  },
  {
    "store_name": "食枫新川菜",
    "address": "上复兴南街75-77号",
    "notes": "他家鱼好吃",
    "video": "",
    "amount": "",
    "category": "炒菜",
    "location": "120.169361,30.211887",
    "phone": "0571-86088618"
  },
  {
    "store_name": "小巢里",
    "address": "凯旋路247-1号",
    "notes": "社区食堂",
    "video": "",
    "amount": "",
    "category": "炒菜",
    "location": "120.190462,30.263041",
    "phone": ""
  },
  {
    "store_name": "贵州人家",
    "address": "九堡家苑二区7排2号101、102",
    "notes": "比较正宗的贵州菜",
    "video": "https://www.bilibili.com/video/BV154ehexEbW",
    "amount": "",
    "category": "炒菜",
    "location": "120.272428,30.312569",
    "phone": "13751388305"
  },
  {
    "store_name": "老葉私房菜(原江山人家店)",
    "address": "昙花庵路与景西路交叉口东南角",
    "notes": "",
    "video": "",
    "amount": "",
    "category": "炒菜",
    "location": "120.201716,30.270080",
    "phone": "0571-86907846;15888823621;15958188628"
  },
  {
    "store_name": "江西广丰菜馆",
    "address": "九堡家苑一区10排20号",
    "notes": "",
    "video": "",
    "amount": "",
    "category": "炒菜",
    "location": "120.272133,30.316957",
    "phone": "18970315355"
  },
  {
    "store_name": "荣荣新新面馆(化仙桥路店)",
    "address": "化仙桥路45号",
    "notes": "",
    "video": "",
    "amount": "",
    "category": "面馆",
    "location": "120.158726,30.206393",
    "phone": "13335812606;15067146057"
  },
  {
    "store_name": "美英面馆",
    "address": "河坊街67-4号",
    "notes": "炒年糕好吃",
    "video": "",
    "amount": "",
    "category": "面馆",
    "location": "120.173313,30.239948",
    "phone": "13588045093"
  },
  {
    "store_name": "闸口大排面（化仙桥店）",
    "address": "化仙桥路19号",
    "notes": "汤面好过拌川",
    "video": "",
    "amount": "",
    "category": "面馆",
    "location": "120.158373,30.206901",
    "phone": "13386507155"
  },
  {
    "store_name": "天天小排面馆",
    "address": "秋涛路68号",
    "notes": "有卤味",
    "video": "",
    "amount": "",
    "category": "面馆",
    "location": "120.176935,30.220468",
    "phone": "17857310207;18958123046"
  },
  {
    "store_name": "家暄面馆",
    "address": "日新桥弄3号",
    "notes": "有炒菜，炒菜跟面都好吃",
    "video": "",
    "amount": "",
    "category": "面馆",
    "location": "120.170817,30.249186",
    "phone": "13305710576"
  },
  {
    "store_name": "阿胖面店（映霞街店）",
    "address": "映霞街77号",
    "notes": "经常去！拌川好吃",
    "video": "",
    "amount": "",
    "category": "面馆",
    "location": "120.184499,30.235039",
    "phone": "0571-86057553;15088766440"
  },
  {
    "store_name": "忠忠面馆（皮市巷店）",
    "address": "皮市巷90号",
    "notes": "",
    "video": "",
    "amount": "",
    "category": "面馆",
    "location": "120.175189,30.255964",
    "phone": ""
  },
  {
    "store_name": "阿娟面馆",
    "address": "复兴路101号",
    "notes": "有炒菜",
    "video": "",
    "amount": "",
    "category": "面馆",
    "location": "120.171363,30.213940",
    "phone": "0571-86085626;13958138430"
  },
  {
    "store_name": "马大姐面店",
    "address": "紫花路1号",
    "notes": "",
    "video": "",
    "amount": "",
    "category": "面馆",
    "location": "120.171315,30.214010",
    "phone": "15168336310"
  },
  {
    "store_name": "东东面馆",
    "address": "金钗袋巷96号",
    "notes": "有臭豆腐油墩儿定胜糕",
    "video": "",
    "amount": "",
    "category": "面馆",
    "location": "120.174440,30.237015",
    "phone": "13858007211"
  },
  {
    "store_name": "毛家面",
    "address": "紫花路39号",
    "notes": "有炒菜",
    "video": "",
    "amount": "",
    "category": "面馆",
    "location": "120.171927,30.213182",
    "phone": ""
  },
  {
    "store_name": "黄记手擀面",
    "address": "蕙兰雅路319号路",
    "notes": "铁板面",
    "video": "",
    "amount": "",
    "category": "面馆",
    "location": "120.231638,30.350568",
    "phone": "13588035880"
  },
  {
    "store_name": "晓麟奶茶（望江店）",
    "address": "紫阳街道金钗袋巷72号",
    "notes": "三明治好吃！",
    "video": "",
    "amount": "",
    "category": "甜品",
    "location": "120.174367,30.236253",
    "phone": ""
  },
  {
    "store_name": "123奶茶",
    "address": "十五奎巷121-3",
    "notes": "",
    "video": "https://www.bilibili.com/video/BV1RX4y1772Q/",
    "amount": "",
    "category": "甜品",
    "location": "120.168596,30.236118",
    "phone": ""
  },
  {
    "store_name": "阿姨奶茶专卖",
    "address": "惠民路31号",
    "notes": "",
    "video": "https://www.bilibili.com/video/BV1MP411b7nb/",
    "amount": "",
    "category": "甜品",
    "location": "120.166765,30.242536",
    "phone": "13588763545"
  },
  {
    "store_name": "朝九晚五喝咖啡",
    "address": "艮山支三路5号",
    "notes": "",
    "video": "https://www.bilibili.com/video/BV1Xu411u7SC/",
    "amount": "",
    "category": "甜品",
    "location": "120.196831,30.278043",
    "phone": "13958123302"
  },
  {
    "store_name": "慧饮品小吃",
    "address": "蓝天城市花园7幢底商8室",
    "notes": "温州冷饮店",
    "video": "",
    "amount": "",
    "category": "甜品",
    "location": "120.189495,30.284710",
    "phone": "17205857217"
  },
  {
    "store_name": "小阿庆冷饮",
    "address": "环站东路984号滨江德信东方星城",
    "notes": "",
    "video": "",
    "amount": "",
    "category": "甜品",
    "location": "120.214648,30.302770",
    "phone": "18768390075"
  },
  {
    "store_name": "永太全牛坊",
    "address": "中山北路26号",
    "notes": "",
    "video": "",
    "amount": "",
    "category": "小吃",
    "location": "120.169691,30.259134",
    "phone": "0571-87023320;18958020109"
  },
  {
    "store_name": "吴师傅饺子店",
    "address": "新华路39号铭成商务楼1楼",
    "notes": "",
    "video": "",
    "amount": "",
    "category": "小吃",
    "location": "120.176019,30.260439",
    "phone": "17357176149;18906819443"
  },
  {
    "store_name": "濮家新村葱包烩",
    "address": "濮家新村老奶奶葱包烩",
    "notes": "",
    "video": "",
    "amount": "",
    "category": "小吃",
    "location": "120.196646,30.284838",
    "phone": ""
  },
  {
    "store_name": "阿龙牛肉煎包",
    "address": "河坊街步行街后市街17号",
    "notes": "",
    "video": "",
    "amount": "",
    "category": "小吃",
    "location": "120.169100,30.240907",
    "phone": "18667139068"
  },
  {
    "store_name": "老龙翔臭豆腐",
    "address": "高银街107-109号",
    "notes": "探店视频里去错成25号的了，表格里给的是107号的",
    "video": "https://www.bilibili.com/video/BV1GN411Y79x/",
    "amount": "",
    "category": "小吃",
    "location": "120.168994,30.240533",
    "phone": "13858065047"
  },
  {
    "store_name": "安徽料理(闸弄口店)",
    "address": "顾家畈路117-40号",
    "notes": "门店较小，可以选外卖",
    "video": "",
    "amount": "",
    "category": "",
    "location": "120.188817,30.291449",
    "phone": "15258851362;17857118165"
  },
  {
    "store_name": "宗式炒饭",
    "address": "艮山西路闸弄口新村1幢",
    "notes": "炒饭好吃！还有炸里脊",
    "video": "",
    "amount": "",
    "category": "",
    "location": "120.193604,30.276276",
    "phone": ""
  },
  {
    "store_name": "金枫锅贴(滨江·凯旋门店)",
    "address": "庆菱路13号",
    "notes": "",
    "video": "",
    "amount": "",
    "category": "",
    "location": "120.192639,30.255434",
    "phone": "15167108898"
  },
  {
    "store_name": "芳春煎饺",
    "address": "杭州市上城区中山南路479号",
    "notes": "",
    "video": "",
    "amount": "",
    "category": "",
    "location": "120.171034,30.237205",
    "phone": "15168325020"
  },
  {
    "store_name": "秋记媛儿煎包",
    "address": "景昙路与秋涛北路一弄交叉口北60米",
    "notes": "",
    "video": "",
    "amount": "",
    "category": "",
    "location": "120.203851,30.266674",
    "phone": ""
  },
  {
    "store_name": "浙江大学华家池第一食堂",
    "address": "凯旋路268号浙江大学华家池校区华池中路",
    "notes": "",
    "video": "",
    "amount": "",
    "category": "",
    "location": "120.198239,30.269938",
    "phone": ""
  },
  {
    "store_name": "附近馄饨",
    "address": "蕙北支路与蕙兰雅路交叉口东南方30米",
    "notes": "丁桥镇蕙兰雅路640-1号",
    "video": "",
    "amount": "",
    "category": "",
    "location": "120.228432,30.357464",
    "phone": "13777792340"
  },
  {
    "store_name": "大牛庄牛肉汤馆",
    "address": "杭海路251号永盈大厦",
    "notes": "",
    "video": "",
    "amount": "",
    "category": "",
    "location": "120.205510,30.254077",
    "phone": "13186956681"
  },
  {
    "store_name": "小天鹅麻辣烫",
    "address": "凤起东路43号-2",
    "notes": "这家去的频率超高，微辣正好",
    "video": "",
    "amount": "",
    "category": "",
    "location": "120.194108,30.263603",
    "phone": "15968895173;18158402189"
  },
  {
    "store_name": "楠哥煎饺",
    "address": "建国中路130号",
    "notes": "",
    "video": "",
    "amount": "",
    "category": "",
    "location": "120.180719,30.253217",
    "phone": "18267607198"
  },
  {
    "store_name": "钱华小吃",
    "address": "秋涛路178号",
    "notes": "",
    "video": "",
    "amount": "",
    "category": "",
    "location": "120.178205,30.221825",
    "phone": "15057152327;15394278002"
  },
  {
    "store_name": "无名鸡蛋饼",
    "address": "机场路16-1号",
    "notes": "",
    "video": "",
    "amount": "",
    "category": "",
    "location": "120.191096,30.277162",
    "phone": "13777494732"
  },
  {
    "store_name": "永记馄饨",
    "address": "双菱路5号",
    "notes": "有抱蛋馄饨",
    "video": "",
    "amount": "",
    "category": "",
    "location": "120.195393,30.252491",
    "phone": "13958059515;18329165016"
  },
  {
    "store_name": "江雄小吃店",
    "address": "江城路279号",
    "notes": "",
    "video": "",
    "amount": "",
    "category": "",
    "location": "120.172717,30.226635",
    "phone": "15268827401"
  },
  {
    "store_name": "泮芳春煎饺",
    "address": "太平门直街246号",
    "notes": "",
    "video": "",
    "amount": "",
    "category": "",
    "location": "120.199728,30.260181",
    "phone": ""
  },
  {
    "store_name": "甘肃手工面馆",
    "address": "杭州市上城区格畈家园南苑2排36号101室",
    "notes": "还有天水麻辣烫，甜胚子",
    "video": "",
    "amount": "",
    "category": "",
    "location": "120.261486,30.322780",
    "phone": "15858179135"
  },
  {
    "store_name": "北海亭云吞",
    "address": "近江北路53号",
    "notes": "",
    "video": "",
    "amount": "",
    "category": "",
    "location": "120.199882,30.236076",
    "phone": "15068823230"
  },
  {
    "store_name": "延世炸鸡",
    "address": "凯旋街道绿地商业中心5号楼108室",
    "notes": "好吃的韩式炸鸡",
    "video": "",
    "amount": "",
    "category": "",
    "location": "120.197018,30.274899",
    "phone": "13858955027"
  },
  {
    "store_name": "付成生煎包",
    "address": "芭园弄61号近江八园(近江地铁站C2口步行340米)",
    "notes": "",
    "video": "https://www.bilibili.com/video/BV1CZ421u7Zi",
    "amount": "",
    "category": "",
    "location": "120.196842,30.234243",
    "phone": ""
  },
  {
    "store_name": "正二品东北饺子",
    "address": "新风路326-1号",
    "notes": "",
    "video": "",
    "amount": "",
    "category": "",
    "location": "120.205107,30.294517",
    "phone": "13023603140;13023667749"
  },
  {
    "store_name": "陕西罗家凉皮",
    "address": "景芳二区38号-7",
    "notes": "",
    "video": "",
    "amount": "",
    "category": "",
    "location": "120.201726,30.269540",
    "phone": ""
  },
  {
    "store_name": "意诺披萨",
    "address": "紫阳街道江城路557号-1室(近望江门)",
    "notes": "性价比堪比萨莉亚",
    "video": "",
    "amount": "",
    "category": "",
    "location": "120.175107,30.234147",
    "phone": "0571-86823912"
  },
  {
    "store_name": "阿江温州饮楼",
    "address": "普庆路55号",
    "notes": "温州冷饮、炒粉",
    "video": "",
    "amount": "",
    "category": "",
    "location": "120.248414,30.312257",
    "phone": "13819178014,18658182868"
  },
  {
    "store_name": "一串炸货铺",
    "address": "筑塘路135号",
    "notes": "小时候的芝麻酱炸串",
    "video": "",
    "amount": "",
    "category": "",
    "location": "120.221399,30.276185",
    "phone": "13758266627"
  },
  {
    "store_name": "和阗玫瑰抓饭",
    "address": "太平门直街525号",
    "notes": "新疆抓饭，薄皮包子好吃",
    "video": "",
    "amount": "",
    "category": "",
    "location": "120.210134,30.261127",
    "phone": "15867172450"
  },
  {
    "store_name": "勇贤小吃",
    "address": "信义巷144号信义坊步行街内",
    "notes": "面积不大，口味性价比都不错",
    "video": "",
    "amount": "",
    "category": "",
    "location": "120.145140,30.294708",
    "phone": "0571-88090029"
  },
  {
    "store_name": "宗国强餐饮店",
    "address": "明珠街1332建塘家苑北区",
    "notes": "",
    "video": "",
    "amount": "",
    "category": "",
    "location": "120.207809,30.347087",
    "phone": "13605819219"
  },
  {
    "store_name": "弄堂小炒(朝晖店)",
    "address": "黎园社区花明弄朝晖实验小学旁",
    "notes": "",
    "video": "",
    "amount": "",
    "category": "",
    "location": "120.165145,30.282839",
    "phone": "13575726266"
  },
  {
    "store_name": "宝记杭帮菜(德苑店)",
    "address": "大关南九苑35号125室、36号126室",
    "notes": "",
    "video": "",
    "amount": "",
    "category": "",
    "location": "120.159825,30.302878",
    "phone": "0571-88350885;13777596311"
  },
  {
    "store_name": "芳芳小吃",
    "address": "新市街51号",
    "notes": "",
    "video": "",
    "amount": "",
    "category": "",
    "location": "120.168858,30.287452",
    "phone": ""
  },
  {
    "store_name": "新尤记菜馆",
    "address": "河东路172号朝晖五区46幢",
    "notes": "",
    "video": "",
    "amount": "",
    "category": "",
    "location": "120.160995,30.287430",
    "phone": "0571-86932823;15372013832"
  },
  {
    "store_name": "怡杭饮食店",
    "address": "新市街49-1号",
    "notes": "",
    "video": "",
    "amount": "",
    "category": "",
    "location": "120.168831,30.287447",
    "phone": "18268048808"
  },
  {
    "store_name": "小厨房",
    "address": "东新路501号长兴公寓",
    "notes": "",
    "video": "",
    "amount": "",
    "category": "",
    "location": "120.173410,30.306622",
    "phone": "13858067577;18667133257"
  },
  {
    "store_name": "张大姐小吃",
    "address": "新市街114号",
    "notes": "",
    "video": "",
    "amount": "",
    "category": "",
    "location": "120.164441,30.286886",
    "phone": "18357128506"
  },
  {
    "store_name": "胖子饭店",
    "address": "石桥路200号农科院附近",
    "notes": "周末节假日休息",
    "video": "",
    "amount": "",
    "category": "",
    "location": "120.195515,30.309682",
    "phone": ""
  },
  {
    "store_name": "卤儿大肠",
    "address": "蓝孔雀社区秋霞街252号",
    "notes": "",
    "video": "",
    "amount": "",
    "category": "",
    "location": "120.104757,30.317341",
    "phone": "19012778512"
  },
  {
    "store_name": "桃花源面馆(古河巷店)",
    "address": "潮王路与古河巷交叉口红石板农贸市场进门右转第一家",
    "notes": "",
    "video": "",
    "amount": "",
    "category": "",
    "location": "120.153830,30.285221",
    "phone": "18888712080"
  },
  {
    "store_name": "长宁街.九号面馆",
    "address": "长宁街9号（中河北路地铁站C口步行320米）",
    "notes": "有两面黄",
    "video": "",
    "amount": "",
    "category": "",
    "location": "120.172060,30.261268",
    "phone": "18858260785"
  },
  {
    "store_name": "斯利美",
    "address": "河东路222号",
    "notes": "魔方公寓1楼",
    "video": "",
    "amount": "",
    "category": "",
    "location": "120.159620,30.289760",
    "phone": "15990001844;18167110573"
  },
  {
    "store_name": "VEGECOFFEE 菜场咖啡",
    "address": "朝晖街道古河巷29号红石板菜市场内",
    "notes": "",
    "video": "",
    "amount": "",
    "category": "",
    "location": "120.153859,30.285239",
    "phone": "18779176132"
  },
  {
    "store_name": "凉友花哥双皮奶（舟山东路）",
    "address": "浙大城市学院内宿舍楼下",
    "notes": "紫金港还有一家",
    "video": "",
    "amount": "",
    "category": "",
    "location": "120.156602,30.320854",
    "phone": "13221079161"
  },
  {
    "store_name": "丙尚馄饨王",
    "address": "朝晖街道新市街80-2号",
    "notes": "24小时营业",
    "video": "",
    "amount": "",
    "category": "",
    "location": "120.166832,30.287419",
    "phone": "0571-86572276;13588185142"
  },
  {
    "store_name": "油墩儿小摊",
    "address": "衢州街20号",
    "notes": "吉庆院小区门口",
    "video": "",
    "amount": "",
    "category": "",
    "location": "120.145835,30.317111",
    "phone": ""
  },
  {
    "store_name": "孔记小吃",
    "address": "北景园回龙路61号",
    "notes": "",
    "video": "",
    "amount": "",
    "category": "",
    "location": "120.185963,30.332201",
    "phone": "15958111312"
  },
  {
    "store_name": "阿胖小吃店（阿胖早餐店）",
    "address": "载歌巷15号",
    "notes": "油条特别出名",
    "video": "",
    "amount": "",
    "category": "",
    "location": "120.169902,30.309335",
    "phone": "18257350646"
  },
  {
    "store_name": "定海园特色早餐店",
    "address": "定海街186号",
    "notes": "",
    "video": "",
    "amount": "",
    "category": "",
    "location": "120.143236,30.325595",
    "phone": "15990013979"
  },
  {
    "store_name": "唯新食品",
    "address": "新市街134-2号",
    "notes": "",
    "video": "https://www.bilibili.com/video/BV1Ca4y197tz/",
    "amount": "",
    "category": "",
    "location": "120.163324,30.286597",
    "phone": "18101517242;18158539091"
  },
  {
    "store_name": "名点快餐",
    "address": "大关苑路59号",
    "notes": "",
    "video": "",
    "amount": "",
    "category": "",
    "location": "120.153785,30.309154",
    "phone": "15858215922"
  },
  {
    "store_name": "查记土猪肉煎包",
    "address": "小河街道元谷创意园",
    "notes": "煎包推荐",
    "video": "",
    "amount": "",
    "category": "",
    "location": "120.214247,30.274412",
    "phone": "15757199082"
  },
  {
    "store_name": "801炒粉干安徽料理 ",
    "address": "潮王支路46号",
    "notes": "",
    "video": "",
    "amount": "",
    "category": "",
    "location": "120.156347,30.289008",
    "phone": "13357190652;13372533031"
  },
  {
    "store_name": "小王早餐店",
    "address": "和睦路45-1号西南方向100米杨家门小区",
    "notes": "在百岁面馆",
    "video": "",
    "amount": "",
    "category": "",
    "location": "120.140490,30.298953",
    "phone": ""
  },
  {
    "store_name": "好浙口翘哥麻辣烫",
    "address": "德胜巷45号",
    "notes": "",
    "video": "",
    "amount": "",
    "category": "",
    "location": "120.153036,30.294716",
    "phone": "15068796218"
  },
  {
    "store_name": "一箪食",
    "address": "下新湖苑13幢(商)6",
    "notes": "小吃的味道都不错",
    "video": "",
    "amount": "",
    "category": "",
    "location": "120.178718,30.315410",
    "phone": "13738109427"
  },
  {
    "store_name": "tiohoh贝果三明治",
    "address": "孩儿巷34号",
    "notes": "",
    "video": "",
    "amount": "",
    "category": "",
    "location": "120.167899,30.261240",
    "phone": "15867158783"
  },
  {
    "store_name": "小宇火锅烧烤",
    "address": "颜三路160号",
    "notes": "烤肉比火锅好吃",
    "video": "",
    "amount": "",
    "category": "",
    "location": "120.169139,30.311190",
    "phone": "13305818882;18768468830"
  },
  {
    "store_name": "老董东北碳火烧烤",
    "address": "德胜路2号1楼112室",
    "notes": "碳火烤串",
    "video": "",
    "amount": "",
    "category": "",
    "location": "120.176129,30.301712",
    "phone": "17757131855;18058784987"
  },
  {
    "store_name": "镜湖畔私房菜",
    "address": "灵山线姚家坞15号",
    "notes": "",
    "video": "",
    "amount": "",
    "category": "",
    "location": "120.059841,30.126331",
    "phone": "15958012060"
  },
  {
    "store_name": "川菜馆（西溪路店）",
    "address": "西溪路56号",
    "notes": "",
    "video": "",
    "amount": "",
    "category": "",
    "location": "120.142720,30.269927",
    "phone": "15372024845;18257136064"
  },
  {
    "store_name": "红海小吃店",
    "address": "杭州市西湖区竞舟路362号",
    "notes": "菜价惊人",
    "video": "",
    "amount": "",
    "category": "",
    "location": "120.103208,30.288294",
    "phone": "0571-88919301"
  },
  {
    "store_name": "磊家炒菜",
    "address": "王家弄6幢",
    "notes": "王家弄菜场内",
    "video": "",
    "amount": "",
    "category": "",
    "location": "120.147643,30.268469",
    "phone": "15257145302"
  },
  {
    "store_name": "宝石山无名菜馆",
    "address": "西湖区宝石山坚匏别墅",
    "notes": "联系抱抱找老板微信，提前跟老板预定",
    "video": "https://www.bilibili.com/video/BV1Sw4m127GA/",
    "amount": "视频内人均61",
    "category": "",
    "location": "120.149988,30.260054",
    "phone": ""
  },
  {
    "store_name": "梁阿姨秘制鱼头",
    "address": "小和山四区2号",
    "notes": "",
    "video": "",
    "amount": "",
    "category": "",
    "location": "120.032724,30.215352",
    "phone": "13758192201"
  },
  {
    "store_name": "阿忠面馆（慈母桥店）",
    "address": "慈母桥村路南53号",
    "notes": "牛蛙拌川好吃！",
    "video": "",
    "amount": "",
    "category": "",
    "location": "120.040935,30.186140",
    "phone": "13685791834;15067111247"
  },
  {
    "store_name": "老戴面馆",
    "address": "金穗公寓东北1门旁",
    "notes": "三墩老街附近",
    "video": "",
    "amount": "",
    "category": "",
    "location": "120.083765,30.320330",
    "phone": "18616271948"
  },
  {
    "store_name": "家粤（石马社区店）",
    "address": "留下街道留和路石马社区3铺1幢1单元102",
    "notes": "烧鸭饭菠萝包都不错",
    "video": "",
    "amount": "",
    "category": "",
    "location": "120.023203,30.208872",
    "phone": "13588069438"
  },
  {
    "store_name": "好好食广式美味店",
    "address": "文三西路374-3号香樟商贸大楼",
    "notes": "",
    "video": "",
    "amount": "",
    "category": "",
    "location": "120.105959,30.276443",
    "phone": "13148306906;13576236339"
  },
  {
    "store_name": "温州小吃佬",
    "address": "余杭塘路427号-1",
    "notes": "",
    "video": "",
    "amount": "",
    "category": "",
    "location": "120.112327,30.293128",
    "phone": "15825526529;18267123503"
  },
  {
    "store_name": "本分冒菜",
    "address": "杭州市西湖区转塘街道金街美地3号楼二楼205",
    "notes": "",
    "video": "",
    "amount": "",
    "category": "",
    "location": "120.078774,30.147715",
    "phone": "17376548577;18106933260"
  },
  {
    "store_name": "吴记果木烤鸭",
    "address": "庙西街5号",
    "notes": "三墩老街附近",
    "video": "",
    "amount": "",
    "category": "",
    "location": "120.083744,30.320279",
    "phone": "13067962617;15990181251"
  },
  {
    "store_name": "鲜森烤饼",
    "address": "振华路258号",
    "notes": "梅干菜蛋黄肉饼好吃！",
    "video": "",
    "amount": "",
    "category": "",
    "location": "120.067911,30.312465",
    "phone": "13732262274"
  },
  {
    "store_name": "咸鱼小厨",
    "address": "大龙驹坞32号",
    "notes": "铁板烧，等餐时间久",
    "video": "",
    "amount": "",
    "category": "",
    "location": "120.083789,30.254767",
    "phone": "15168302808"
  },
  {
    "store_name": "Moo哞堡",
    "address": "浙港国际二号楼112号商铺",
    "notes": "",
    "video": "",
    "amount": "",
    "category": "",
    "location": "120.093118,30.309206",
    "phone": "18856521882"
  },
  {
    "store_name": "六妹螺蛳粉",
    "address": "浙江省杭州市西湖区拓峰新天地园区内4号楼倒数第二间",
    "notes": "螺蛳粉好吃",
    "video": "",
    "amount": "",
    "category": "",
    "location": "120.134696,30.275800",
    "phone": "19357119170"
  },
  {
    "store_name": "大同号小吃店",
    "address": "莫干山路493号文二菜市B馆B03",
    "notes": "台式小吃+重庆小吃",
    "video": "",
    "amount": "",
    "category": "",
    "location": "120.143751,30.286864",
    "phone": "15821164518"
  },
  {
    "store_name": "老李锅贴",
    "address": "西湖区莫干山路493号",
    "notes": "文二菜场里面",
    "video": "https://www.bilibili.com/video/BV1sb4neZEpc/",
    "amount": "",
    "category": "",
    "location": "120.144218,30.286239",
    "phone": ""
  },
  {
    "store_name": "MEOOOU",
    "address": "益乐路102号",
    "notes": "",
    "video": "",
    "amount": "",
    "category": "",
    "location": "120.114369,30.284286",
    "phone": "18058715533"
  },
  {
    "store_name": "细冰",
    "address": "萍水街万家花城1期9幢9-2号-1",
    "notes": "",
    "video": "",
    "amount": "",
    "category": "",
    "location": "120.115378,30.304896",
    "phone": "13456746519;18458166303"
  },
  {
    "store_name": "食稼庄(佳源名城店)",
    "address": "汇贤街与崇超路交叉口西110米",
    "notes": "店里很亮堂，聚餐也不错",
    "video": "",
    "amount": "",
    "category": "",
    "location": "120.174910,30.380499",
    "phone": "13989475446;18314871258"
  },
  {
    "store_name": "郭记菜馆",
    "address": "五常街道文一社区周家斗64号",
    "notes": "",
    "video": "",
    "amount": "",
    "category": "",
    "location": "120.039931,30.286404",
    "phone": "15158037086"
  },
  {
    "store_name": "阿峰饭店",
    "address": "储运路昌运里3-9号",
    "notes": "店里圆桌为主，适合聚餐",
    "video": "",
    "amount": "",
    "category": "",
    "location": "120.131142,30.345335",
    "phone": "15258857707"
  },
  {
    "store_name": "飘香川菜馆",
    "address": "良渚路144号",
    "notes": "毛血旺量大好吃",
    "video": "",
    "amount": "",
    "category": "",
    "location": "120.050723,30.378622",
    "phone": "13666697170"
  },
  {
    "store_name": "欢哥喜嫂闽南泉牛馆",
    "address": "良渚街道逸盛路190号上亿广场F1",
    "notes": "泉州小吃",
    "video": "",
    "amount": "",
    "category": "",
    "location": "120.116620,30.377249",
    "phone": ""
  },
  {
    "store_name": "徐上洪羊肉面",
    "address": "浙江省杭州市余杭区仓前街道汤家村85号5幢一楼",
    "notes": "孤山下还有一家连锁",
    "video": "",
    "amount": "",
    "category": "",
    "location": "119.982166,30.309525",
    "phone": "15381117150"
  },
  {
    "store_name": "普南房蔬食自助",
    "address": "海鸥路美瑭广场7号楼",
    "notes": "素食自助",
    "video": "",
    "amount": "",
    "category": "",
    "location": "120.004664,30.283534",
    "phone": "18968098759"
  },
  {
    "store_name": "老桥砂锅烤饺",
    "address": "余杭区凤凰山路255号",
    "notes": "",
    "video": "",
    "amount": "",
    "category": "",
    "location": "119.941409,30.264294",
    "phone": "17767265163"
  },
  {
    "store_name": "南港烧腊(松合店)",
    "address": "下沙学林街1736-2号",
    "notes": "",
    "video": "",
    "amount": "",
    "category": "",
    "location": "120.311731,30.314871",
    "phone": "17367053012"
  },
  {
    "store_name": "鲁西南牛肉水煎包",
    "address": "下沙七格社区50幢293号",
    "notes": "1块1个牛肉煎包",
    "video": "",
    "amount": "",
    "category": "",
    "location": "120.318017,30.296700",
    "phone": "15554088878"
  },
  {
    "store_name": "裕记广东烧腊",
    "address": "天城东路252号上沙永裕大厦4幢103、104室",
    "notes": "",
    "video": "",
    "amount": "",
    "category": "",
    "location": "120.327984,30.306215",
    "phone": "13510677545;17681824890"
  },
  {
    "store_name": "鸡啤咯哒",
    "address": "2号大街文泽和达城3楼305-1号商铺",
    "notes": "杭州早期的韩式炸鸡",
    "video": "",
    "amount": "",
    "category": "",
    "location": "120.347350,30.308927",
    "phone": "18989875309"
  },
  {
    "store_name": "隔壁老王面馆",
    "address": "下沙学林街1694-1号",
    "notes": "有炒菜",
    "video": "",
    "amount": "",
    "category": "",
    "location": "120.314723,30.315024",
    "phone": "13157111019;17767157673"
  },
  {
    "store_name": "临沂饭店",
    "address": "下沙10号大街西200号",
    "notes": "炒鸡超级好吃",
    "video": "",
    "amount": "",
    "category": "",
    "location": "120.346455,30.296518",
    "phone": "15068119666;15258899789"
  },
  {
    "store_name": "聚鑫源东北菜",
    "address": "高沙小区81号楼",
    "notes": "性价比超高东北菜",
    "video": "",
    "amount": "",
    "category": "",
    "location": "120.337432,30.315049",
    "phone": "18311217758"
  },
  {
    "store_name": "五味园美食餐厅",
    "address": "十六街区111商铺",
    "notes": "",
    "video": "",
    "amount": "",
    "category": "",
    "location": "120.352849,30.309325",
    "phone": "13754312989"
  },
  {
    "store_name": "冰冰酱绵绵冰",
    "address": "下沙宝龙商业中心二期19幢108室",
    "notes": "",
    "video": "",
    "amount": "",
    "category": "",
    "location": "120.383041,30.312254",
    "phone": "19106729722"
  },
  {
    "store_name": "皖北小厨房",
    "address": "齐飞路78号滨兴小区101号",
    "notes": "",
    "video": "",
    "amount": "",
    "category": "",
    "location": "120.200166,30.192678",
    "phone": "18368843325;18368843326"
  },
  {
    "store_name": "大众饭店",
    "address": "东冠农贸市场南大门",
    "notes": "口味重味道不错",
    "video": "",
    "amount": "",
    "category": "",
    "location": "120.163009,30.166946",
    "phone": "18458198019"
  },
  {
    "store_name": "衢州私房菜（东冠路店）",
    "address": "西环路东冠公寓4幢4单元",
    "notes": "",
    "video": "",
    "amount": "",
    "category": "",
    "location": "120.161612,30.166039",
    "phone": "15990037377"
  },
  {
    "store_name": "阿浩小吃",
    "address": "江南大道智慧之门中心商铺43号",
    "notes": "原舟山东路阿浩盖浇饭",
    "video": "",
    "amount": "",
    "category": "",
    "location": "120.229245,30.214644",
    "phone": ""
  },
  {
    "store_name": "东盛炭烤自助料理",
    "address": "飞虹路1408号奥体印象城4楼",
    "notes": "",
    "video": "",
    "amount": "",
    "category": "",
    "location": "120.251925,30.223695",
    "phone": "0571-85080333;15716292916"
  },
  {
    "store_name": "次坞光朝打面",
    "address": "金家桥路33号",
    "notes": "皮卷一定要加！",
    "video": "",
    "amount": "",
    "category": "",
    "location": "120.274838,30.163399",
    "phone": "13506719105;13967127009"
  },
  {
    "store_name": "抱抱爆炒店",
    "address": "北干街道兴五路68号无限公园121裙房",
    "notes": "江西小炒",
    "video": "",
    "amount": "",
    "category": "",
    "location": "120.236541,30.197002",
    "phone": "13777556485"
  },
  {
    "store_name": "阿大烤饼",
    "address": "体育路238号",
    "notes": "偏咸",
    "video": "",
    "amount": "",
    "category": "",
    "location": "120.265300,30.161925",
    "phone": ""
  },
  {
    "store_name": "早安老刘",
    "address": "建设二路386号-15号",
    "notes": "煎包配美式",
    "video": "",
    "amount": "",
    "category": "",
    "location": "120.247149,30.199271",
    "phone": "18258855443"
  },
  {
    "store_name": "连方锅贴店",
    "address": "朝阳东路34号",
    "notes": "",
    "video": "",
    "amount": "",
    "category": "",
    "location": "120.306946,30.423187",
    "phone": "13067774329"
  },
  {
    "store_name": "光头麻辣烫麻辣香锅",
    "address": "乔司街道永乔路3号104",
    "notes": "有麻辣烫跟麻辣香锅",
    "video": "",
    "amount": "",
    "category": "",
    "location": "120.291821,30.353747",
    "phone": "13516777856;15168325526"
  },
  {
    "store_name": "钟奇蛋糕房",
    "address": "仓桥路11号",
    "notes": "老式糕点，现烤月饼",
    "video": "",
    "amount": "",
    "category": "",
    "location": "120.186230,30.475923",
    "phone": "13588065566;15355094969"
  },
  {
    "store_name": "介刨冰",
    "address": "南苑街道迎宾路273-29",
    "notes": "",
    "video": "",
    "amount": "",
    "category": "",
    "location": "120.303872,30.409768",
    "phone": "13588024235"
  },
  {
    "store_name": "云彩之乡云南特色菜",
    "address": "邱山大街名门天第美食广场623-8",
    "notes": "很正宗的云南手抓饭",
    "video": "",
    "amount": "",
    "category": "",
    "location": "120.304913,30.426955",
    "phone": "15054996778;19157929939"
  },
  {
    "store_name": "永昌三根羊肉馆",
    "address": "牧永线与一钱线交叉口东300米",
    "notes": "有臭豆腐刺身，油炸的超好吃",
    "video": "",
    "amount": "",
    "category": "",
    "location": "119.734261,30.031254",
    "phone": "13567125011"
  },
  {
    "store_name": "方老三馄饨王",
    "address": "杭州市上城区濮家新村19幢",
    "notes": "",
    "video": "https://www.bilibili.com/video/BV1S7qrYAEmt/",
    "amount": "",
    "category": "",
    "location": "120.196556,30.284962",
    "phone": "15888815641"
  },
  {
    "store_name": "炸串工作室",
    "address": "杭州市上城区凤凰山231号",
    "notes": "",
    "video": "https://www.bilibili.com/video/BV1omzcYTEUN/",
    "amount": "",
    "category": "",
    "location": "120.168567,30.225707",
    "phone": "15925670045"
  },
  {
    "store_name": "老贵鸭头",
    "address": "杭州市滨江区江晖路滨康二苑",
    "notes": "",
    "video": "https://www.bilibili.com/video/BV1azUUYHEjA/",
    "amount": "",
    "category": "",
    "location": "120.210040,30.178870",
    "phone": "15167155523;17816089535"
  },
  {
    "store_name": "素满香",
    "address": "杭州市上城区西子国际中心B101",
    "notes": "河坊街也有分店",
    "video": "https://www.bilibili.com/video/BV1bdUaYvECu/",
    "amount": "",
    "category": "",
    "location": "120.203822,30.258530",
    "phone": "0571-85366811"
  },
  {
    "store_name": "赵小馆",
    "address": "杭州市上城区机场路京惠花园",
    "notes": "",
    "video": "https://www.bilibili.com/video/BV1GFUNYFEgK",
    "amount": "",
    "category": "",
    "location": "120.190399,30.276452",
    "phone": "13735437697"
  },
  {
    "store_name": "袁胖私房菜",
    "address": "杭州市上城区建国南路199号",
    "notes": "",
    "video": "https://www.bilibili.com/video/BV119SeYBEor/",
    "amount": "",
    "category": "",
    "location": "120.177345,30.241668",
    "phone": "0571-87630857;13067890653;17606512632"
  },
  {
    "store_name": "曹大哥重庆麻麻鱼",
    "address": "杭州市余杭区联良路缔逸城1727号",
    "notes": "",
    "video": "https://www.bilibili.com/video/BV1p3yJYVEJq/",
    "amount": "",
    "category": "",
    "location": "120.071443,30.352074",
    "phone": "18768149090"
  },
  {
    "store_name": "枚樊恼衢州麻辣烫",
    "address": "杭州市拱墅区七古路85号1007室",
    "notes": "",
    "video": "https://www.bilibili.com/video/BV1XamKYwEed/",
    "amount": "",
    "category": "",
    "location": "120.152547,30.314815",
    "phone": ""
  },
  {
    "store_name": "永昌黄氏臭豆腐",
    "address": "三里亭菜场",
    "notes": "",
    "video": "https://www.bilibili.com/video/BV11F28YEEfb/",
    "amount": "",
    "category": "",
    "location": "120.190961,30.257427",
    "phone": "18857101858"
  },
  {
    "store_name": "三桥烧饼",
    "address": "衢江路47号",
    "notes": "",
    "video": "https://www.bilibili.com/video/BV11F28YEEfb/",
    "amount": "",
    "category": "",
    "location": "120.203258,30.231563",
    "phone": "13819468867"
  },
  {
    "store_name": "新楠记煎饺",
    "address": "杭州市上城区秋涛北路254号",
    "notes": "",
    "video": "https://www.bilibili.com/video/BV1Jc2GY9EFK/",
    "amount": "",
    "category": "",
    "location": "120.199312,30.287351",
    "phone": ""
  },
  {
    "store_name": "无名煎饺",
    "address": "西湖区三墩中学马路对面",
    "notes": "",
    "video": "https://www.bilibili.com/video/BV1mE2JYsEpL/",
    "amount": "",
    "category": "",
    "location": "120.082511,30.315968",
    "phone": ""
  },
  {
    "store_name": "杭氏炸鸡",
    "address": "杭州市拱墅区建国北路471号美食广场B1",
    "notes": "",
    "video": "https://www.bilibili.com/video/BV11r1dYHEx1/",
    "amount": "",
    "category": "",
    "location": "120.180036,30.268410",
    "phone": ""
  },
  {
    "store_name": "江阿姨巴基斯坦餐厅",
    "address": "杭州市钱塘区文津路63号",
    "notes": "",
    "video": "https://www.bilibili.com/video/BV1g7xdeFE3F/",
    "amount": "",
    "category": "",
    "location": "120.365988,30.316501",
    "phone": "13804971516"
  },
  {
    "store_name": "广东潮汕良记肠粉",
    "address": "杭州市余杭区管家塘新苑66号后门",
    "notes": "没有堂食位置",
    "video": "https://www.bilibili.com/video/BV1eSxceUERf/",
    "amount": "",
    "category": "",
    "location": "120.118775,30.348405",
    "phone": "13829491737;18072757838"
  },
  {
    "store_name": "无名锅包肉摊位",
    "address": "拱墅区瓜山朗诗寓未来生活社区路边",
    "notes": "",
    "video": "https://www.bilibili.com/video/BV1KVx7eEE9U/",
    "amount": "",
    "category": "",
    "location": "",
    "phone": ""
  },
  {
    "store_name": "东风小馆",
    "address": "杭州市余杭区通运街279-15",
    "notes": "",
    "video": "https://www.bilibili.com/video/BV1LPsSeQEZa",
    "amount": "",
    "category": "",
    "location": "120.121105,30.343235",
    "phone": "15157121207"
  },
  {
    "store_name": "阿良面馆",
    "address": "张家墩农贸市场",
    "notes": "",
    "video": "https://www.bilibili.com/video/BV1uztZe6EP4/",
    "amount": "",
    "category": "",
    "location": "120.180054,30.473805",
    "phone": ""
  }
]
